[
  {
    "id": "MIDCIN",
    "loyaltyCode": 88,
    "slug": "midland-gate",
    "name": "ACE HOYTS Midland Gate",
    "thumbnailImage": "cinemas/acehoyts-midlandgate-landingpage-cards-1314x888.jpg",
    "features": [
      "LUX",
      "D-BOX",
      "Xtremescreen",
      "Daybeds",
      "Lounge",
      "Recliners",
      "3D"
    ],
    "state": "WA",
    "street": "Level 2, 274 Great Eastern Hwy",
    "suburb": "Midland",
    "phone": "(08) 6509 4050",
    "latitude": -31.88893,
    "longitude": 116.00864,
    "link": "/cinemas/midland-gate",
    "treatCity": false,
    "benAndJerry": false,
    "deliveryToDoor": false,
    "deliveryToSeat": false,
    "address": {
      "street": "Level 2, 274 Great Eastern Hwy",
      "suburb": "Midland",
      "state": "WA",
      "postCode": "6056"
    }
  },
  {
    "id": "ARNCIN",
    "loyaltyCode": 81,
    "slug": "arndale",
    "name": "Arndale",
    "thumbnailImage": "cinemas/arndale.jpg",
    "features": [
      "Xtremescreen",
      "3D"
    ],
    "state": "SA",
    "street": "470 Torrens Rd",
    "suburb": "Kilkenny",
    "phone": "(08) 8427 1740",
    "latitude": -34.873845,
    "longitude": 138.549742,
    "link": "/cinemas/arndale",
    "treatCity": false,
    "benAndJerry": false,
    "deliveryToDoor": false,
    "deliveryToSeat": false,
    "address": {
      "street": "470 Torrens Rd",
      "suburb": "Kilkenny",
      "state": "SA",
      "postCode": "5009"
    }
  },
  {
    "id": "BANKTN",
    "loyaltyCode": 12,
    "slug": "bankstown",
    "name": "Bankstown",
    "thumbnailImage": "cinemas/bankstown.jpg",
    "features": [
      "Recliners",
      "3D"
    ],
    "state": "NSW",
    "street": "63 The Mall",
    "suburb": "Bankstown",
    "phone": "(02) 9003 3800",
    "latitude": -33.915519,
    "longitude": 151.036901,
    "link": "/cinemas/bankstown",
    "treatCity": false,
    "benAndJerry": false,
    "deliveryToDoor": false,
    "deliveryToSeat": false,
    "address": {
      "street": "63 The Mall",
      "suburb": "Bankstown",
      "state": "NSW",
      "postCode": "2200"
    }
  },
  {
    "id": "BELCON",
    "loyaltyCode": 2,
    "slug": "belconnen",
    "name": "Belconnen",
    "thumbnailImage": "cinemas/belconnen-1.jpg",
    "features": [
      "D-BOX",
      "Xtremescreen",
      "Recliners",
      "3D"
    ],
    "state": "ACT",
    "street": "Level 3, Benjamin Way",
    "suburb": "Belconnen",
    "phone": "(02) 6223 5300",
    "latitude": -35.238754,
    "longitude": 149.065544,
    "link": "/cinemas/belconnen",
    "treatCity": true,
    "benAndJerry": true,
    "deliveryToDoor": false,
    "deliveryToSeat": false,
    "address": {
      "street": "Level 3, Benjamin Way",
      "suburb": "Belconnen",
      "state": "ACT",
      "postCode": "2617"
    }
  },
  {
    "id": "WESCIN",
    "loyaltyCode": 48,
    "slug": "blacktown",
    "name": "Blacktown",
    "thumbnailImage": "cinemas/blacktown-1.jpg",
    "features": [
      "D-BOX",
      "SCREENX",
      "Xtremescreen",
      "Daybeds",
      "Recliners",
      "3D"
    ],
    "state": "NSW",
    "street": "Westpoint Shopping Centre, Level 4, Patrick Street",
    "suburb": "Blacktown",
    "phone": "(02) 9003 3810",
    "latitude": -33.770229,
    "longitude": 150.904861,
    "link": "/cinemas/blacktown",
    "treatCity": false,
    "benAndJerry": true,
    "deliveryToDoor": true,
    "deliveryToSeat": false,
    "address": {
      "street": "Westpoint Shopping Centre, Level 4, Patrick Street",
      "suburb": "Blacktown",
      "state": "NSW",
      "postCode": "2148"
    }
  },
  {
    "id": "BMWCIN",
    "loyaltyCode": 27,
    "slug": "broadmeadows",
    "name": "Broadmeadows",
    "thumbnailImage": "cinemas/broadmeadows.jpg",
    "features": [
      "D-BOX",
      "Xtremescreen",
      "Daybeds",
      "Recliners",
      "3D"
    ],
    "state": "VIC",
    "street": "48-50 Pearcedale Rd",
    "suburb": "Broadmeadows",
    "phone": "(03) 9026 9900",
    "latitude": -37.681301,
    "longitude": 144.918285,
    "link": "/cinemas/broadmeadows",
    "treatCity": false,
    "benAndJerry": false,
    "deliveryToDoor": false,
    "deliveryToSeat": false,
    "address": {
      "street": "48-50 Pearcedale Rd",
      "suburb": "Broadmeadows",
      "state": "VIC",
      "postCode": "3047"
    }
  },
  {
    "id": "BROADW",
    "loyaltyCode": 13,
    "slug": "broadway",
    "name": "Broadway",
    "thumbnailImage": "cinemas/broadway-1.jpeg",
    "features": [
      "LUX",
      "Xtremescreen",
      "Recliners",
      "3D"
    ],
    "state": "NSW",
    "street": "Cnr Greek & Bay Street",
    "suburb": "Broadway",
    "phone": "(02) 9003 3820",
    "latitude": -33.883259,
    "longitude": 151.19404,
    "link": "/cinemas/broadway",
    "treatCity": false,
    "benAndJerry": true,
    "deliveryToDoor": false,
    "deliveryToSeat": false,
    "address": {
      "street": "Cnr Greek & Bay Street",
      "suburb": "Broadway",
      "state": "NSW",
      "postCode": "2007"
    }
  },
  {
    "id": "BUNCIN",
    "loyaltyCode": 84,
    "slug": "bunbury",
    "name": "Bunbury",
    "thumbnailImage": "cinemas/bunburycinema-4000x3000.png",
    "features": [],
    "state": "WA",
    "street": "33 Clifton St",
    "suburb": "Bunbury",
    "phone": "(08) 6509 4040",
    "latitude": -33.3214933,
    "longitude": 115.6373931,
    "link": "/cinemas/bunbury",
    "treatCity": false,
    "benAndJerry": false,
    "deliveryToDoor": false,
    "deliveryToSeat": false,
    "address": {
      "street": "33 Clifton St",
      "suburb": "Bunbury",
      "state": "WA",
      "postCode": "6230"
    }
  },
  {
    "id": "CAROUS",
    "loyaltyCode": 35,
    "slug": "carousel",
    "name": "Carousel",
    "thumbnailImage": "cinemas/carousel.jpg",
    "features": [
      "LUX",
      "IMAX",
      "D-BOX",
      "Xtremescreen",
      "Daybeds",
      "Recliners",
      "3D"
    ],
    "state": "WA",
    "street": "1382 Albany Hwy",
    "suburb": "Cannington",
    "phone": "(08) 9466 4900",
    "latitude": -32.01977,
    "longitude": 115.9387,
    "link": "/cinemas/carousel",
    "treatCity": true,
    "benAndJerry": true,
    "deliveryToDoor": false,
    "deliveryToSeat": false,
    "address": {
      "street": "1382 Albany Hwy",
      "suburb": "Cannington",
      "state": "WA",
      "postCode": "6107"
    }
  },
  {
    "id": "CHDSTN",
    "loyaltyCode": 28,
    "slug": "chadstone",
    "name": "Chadstone",
    "thumbnailImage": "cinemas/chadstone.jpg",
    "features": [
      "LUX",
      "IMAX",
      "Xtremescreen",
      "Daybeds",
      "Recliners",
      "Atmos",
      "3D"
    ],
    "state": "VIC",
    "street": "1341 Dandenong Rd",
    "suburb": "Chadstone",
    "phone": "(03) 9026 9910",
    "latitude": -37.888486,
    "longitude": 145.08177,
    "link": "/cinemas/chadstone",
    "treatCity": true,
    "benAndJerry": true,
    "deliveryToDoor": false,
    "deliveryToSeat": false,
    "address": {
      "street": "1341 Dandenong Rd",
      "suburb": "Chadstone",
      "state": "VIC",
      "postCode": "3148"
    }
  },
  {
    "id": "CHARLE",
    "loyaltyCode": 14,
    "slug": "charlestown",
    "name": "Charlestown",
    "thumbnailImage": "cinemas/charlestown.jpg",
    "features": [
      "D-BOX",
      "Recliners",
      "3D"
    ],
    "state": "NSW",
    "street": "244 Pacific Highway",
    "suburb": "Charlestown",
    "phone": "(02) 4032 4200",
    "latitude": -32.960295,
    "longitude": 151.697225,
    "link": "/cinemas/charlestown",
    "treatCity": false,
    "benAndJerry": false,
    "deliveryToDoor": false,
    "deliveryToSeat": false,
    "address": {
      "street": "244 Pacific Highway",
      "suburb": "Charlestown",
      "state": "NSW",
      "postCode": "2290"
    }
  },
  {
    "id": "CHWOOD",
    "loyaltyCode": 15,
    "slug": "chatswood-mandarin",
    "name": "Chatswood Mandarin",
    "thumbnailImage": "cinemas/chatswood-mandarin.jpg",
    "features": [
      "Daybeds",
      "Recliners",
      "3D"
    ],
    "state": "NSW",
    "street": "Cnr Albert & Victor Sts",
    "suburb": "Chatswood",
    "phone": "(02) 9003 3830",
    "latitude": -33.797943,
    "longitude": 151.182391,
    "link": "/cinemas/chatswood-mandarin",
    "treatCity": true,
    "benAndJerry": false,
    "deliveryToDoor": false,
    "deliveryToSeat": false,
    "address": {
      "street": "Cnr Albert & Victor Sts",
      "suburb": "Chatswood",
      "state": "NSW",
      "postCode": "2067"
    }
  },
  {
    "id": "CWFFLD",
    "loyaltyCode": 16,
    "slug": "chatswood-westfield",
    "name": "Chatswood Westfield",
    "thumbnailImage": "cinemas/chatswood-westfield.jpg",
    "features": [
      "LUX",
      "D-BOX",
      "Xtremescreen",
      "Daybeds",
      "Recliners",
      "3D"
    ],
    "state": "NSW",
    "street": "Westfield, Level 6, Anderson St",
    "suburb": "Chatswood",
    "phone": "(02) 9003 3840",
    "latitude": -33.797,
    "longitude": 151.183034,
    "link": "/cinemas/chatswood-westfield",
    "treatCity": false,
    "benAndJerry": false,
    "deliveryToDoor": false,
    "deliveryToSeat": false,
    "address": {
      "street": "Westfield, Level 6, Anderson St",
      "suburb": "Chatswood",
      "state": "NSW",
      "postCode": "2067"
    }
  },
  {
    "id": "CROCIN",
    "loyaltyCode": 80,
    "slug": "cronulla",
    "name": "Cronulla",
    "thumbnailImage": "cinemas/cronulla.jpg",
    "features": [
      "D-BOX",
      "Lounge",
      "Recliners",
      "3D"
    ],
    "state": "NSW",
    "street": "2 Cronulla Street",
    "suburb": "Cronulla",
    "latitude": -34.050766,
    "longitude": 151.151247,
    "link": "/cinemas/cronulla",
    "treatCity": true,
    "benAndJerry": false,
    "deliveryToDoor": false,
    "deliveryToSeat": false,
    "address": {
      "street": "2 Cronulla Street",
      "suburb": "Cronulla",
      "state": "NSW",
      "postCode": "2230"
    }
  },
  {
    "id": "CURCIN",
    "loyaltyCode": 85,
    "slug": "currambine",
    "name": "Currambine",
    "thumbnailImage": "cinemas/request-5101-currambine-gold-lounge.png",
    "features": [
      "LUX",
      "D-BOX",
      "Xtremescreen",
      "Daybeds",
      "Recliners",
      "Atmos"
    ],
    "state": "WA",
    "street": "1244 Marmion Ave",
    "suburb": "Currambine",
    "phone": "(08) 6509 4010",
    "latitude": -31.7406384,
    "longitude": 115.7396096,
    "link": "/cinemas/currambine",
    "treatCity": false,
    "benAndJerry": false,
    "deliveryToDoor": false,
    "deliveryToSeat": false,
    "address": {
      "street": "1244 Marmion Ave",
      "suburb": "Currambine",
      "state": "WA",
      "postCode": "6028"
    }
  },
  {
    "id": "EGDENS",
    "loyaltyCode": 18,
    "slug": "eastgardens",
    "name": "Eastgardens",
    "thumbnailImage": "cinemas/eastgardens.jpg",
    "features": [
      "D-BOX",
      "Xtremescreen",
      "Daybeds",
      "Recliners",
      "3D"
    ],
    "state": "NSW",
    "street": "152 Bunnerong Rd",
    "suburb": "Eastgardens",
    "phone": "(02) 9003 3860",
    "latitude": -33.944812,
    "longitude": 151.224256,
    "link": "/cinemas/eastgardens",
    "treatCity": false,
    "benAndJerry": false,
    "deliveryToDoor": false,
    "deliveryToSeat": false,
    "address": {
      "street": "152 Bunnerong Rd",
      "suburb": "Eastgardens",
      "state": "NSW",
      "postCode": "2036"
    }
  },
  {
    "id": "EASTLN",
    "loyaltyCode": 43,
    "slug": "eastland",
    "name": "Eastland",
    "thumbnailImage": "cinemas/xtremescreen-side-p1016970.jpg",
    "features": [
      "LUX",
      "D-BOX",
      "Xtremescreen",
      "Daybeds",
      "Recliners",
      "3D"
    ],
    "state": "VIC",
    "street": "Level 3, 171-175 Maroondah Highway",
    "suburb": "Ringwood",
    "phone": "(03) 9026 9920",
    "latitude": -37.815704,
    "longitude": 145.227177,
    "link": "/cinemas/eastland",
    "treatCity": true,
    "benAndJerry": true,
    "deliveryToDoor": false,
    "deliveryToSeat": false,
    "address": {
      "street": "Level 3, 171-175 Maroondah Highway",
      "suburb": "Ringwood",
      "state": "VIC",
      "postCode": "3134"
    }
  },
  {
    "id": "SHOWGR",
    "loyaltyCode": 23,
    "slug": "entertainment-quarter",
    "name": "Entertainment Quarter",
    "thumbnailImage": "cinemas/entertainment-quarter.jpg",
    "features": [
      "LUX",
      "D-BOX",
      "Xtremescreen",
      "ONYX",
      "Recliners",
      "Atmos",
      "3D",
      "HOYTS Cinema 9"
    ],
    "state": "NSW",
    "street": "Cinemas 1-12, Bent Street",
    "suburb": "Moore Park",
    "phone": "(02) 9003 3870",
    "latitude": -33.894519,
    "longitude": 151.227329,
    "link": "/cinemas/entertainment-quarter",
    "treatCity": true,
    "benAndJerry": false,
    "deliveryToDoor": false,
    "deliveryToSeat": false,
    "address": {
      "street": "Cinemas 1-12, Bent Street",
      "suburb": "Moore Park",
      "state": "NSW",
      "postCode": "2021"
    }
  },
  {
    "id": "ERINAF",
    "loyaltyCode": 19,
    "slug": "erina",
    "name": "Erina",
    "thumbnailImage": "cinemas/erina.jpg",
    "features": [
      "D-BOX",
      "Xtremescreen",
      "Daybeds",
      "Recliners",
      "Atmos",
      "3D"
    ],
    "state": "NSW",
    "street": "Terrigal Drive",
    "suburb": "Erina",
    "phone": "(02) 4346 1400",
    "latitude": -33.436939,
    "longitude": 151.390484,
    "link": "/cinemas/erina",
    "treatCity": true,
    "benAndJerry": false,
    "deliveryToDoor": false,
    "deliveryToSeat": false,
    "address": {
      "street": "Terrigal Drive",
      "suburb": "Erina",
      "state": "NSW",
      "postCode": "2250"
    }
  },
  {
    "id": "FHLCIN",
    "loyaltyCode": 29,
    "slug": "forest-hill",
    "name": "Forest Hill",
    "thumbnailImage": "cinemas/forest-hill.jpg",
    "features": [
      "Recliners",
      "3D"
    ],
    "state": "VIC",
    "street": "Cnr Mahoneys Rd & Canterbury Rd",
    "suburb": "Forest Hill",
    "phone": "(03) 9026 9930",
    "latitude": -37.835138,
    "longitude": 145.16439,
    "link": "/cinemas/forest-hill",
    "treatCity": false,
    "benAndJerry": false,
    "deliveryToDoor": false,
    "deliveryToSeat": false,
    "address": {
      "street": "Cnr Mahoneys Rd & Canterbury Rd",
      "suburb": "Forest Hill",
      "state": "VIC",
      "postCode": "3131"
    }
  },
  {
    "id": "FRANKS",
    "loyaltyCode": 68,
    "slug": "frankston",
    "name": "Frankston",
    "thumbnailImage": "cinemas/frankston.jpg",
    "features": [
      "D-BOX",
      "Xtremescreen",
      "Daybeds",
      "Recliners",
      "3D"
    ],
    "state": "VIC",
    "street": "21 Wells Street",
    "suburb": "Frankston",
    "phone": "(03) 9026 9940",
    "latitude": -38.143657,
    "longitude": 145.123139,
    "link": "/cinemas/frankston",
    "treatCity": true,
    "benAndJerry": false,
    "deliveryToDoor": false,
    "deliveryToSeat": false,
    "address": {
      "street": "21 Wells Street",
      "suburb": "Frankston",
      "state": "VIC",
      "postCode": "3199"
    }
  },
  {
    "id": "BOOGDN",
    "loyaltyCode": 40,
    "slug": "garden-city",
    "name": "Garden City",
    "thumbnailImage": "cinemas/garden-city.jpg",
    "features": [
      "Xtremescreen",
      "3D"
    ],
    "state": "WA",
    "street": "Almondbury Rd",
    "suburb": "Booragoon",
    "phone": "(08) 9466 4910",
    "latitude": -32.032137,
    "longitude": 115.835004,
    "link": "/cinemas/garden-city",
    "treatCity": false,
    "benAndJerry": false,
    "deliveryToDoor": false,
    "deliveryToSeat": false,
    "address": {
      "street": "Almondbury Rd",
      "suburb": "Booragoon",
      "state": "WA",
      "postCode": "6154"
    }
  },
  {
    "id": "GHLCIN",
    "loyaltyCode": 76,
    "slug": "green-hills",
    "name": "Green Hills",
    "thumbnailImage": "cinemas/green-hills.jpg",
    "features": [
      "LUX",
      "D-BOX",
      "Xtremescreen",
      "Daybeds",
      "Recliners",
      "Atmos",
      "3D"
    ],
    "state": "NSW",
    "street": "Green Hills, 1 Molly Morgan Drive",
    "suburb": "East Maitland",
    "latitude": -32.762732,
    "longitude": 151.58931,
    "link": "/cinemas/green-hills",
    "treatCity": true,
    "benAndJerry": false,
    "deliveryToDoor": false,
    "deliveryToSeat": false,
    "address": {
      "street": "Green Hills, 1 Molly Morgan Drive",
      "suburb": "East Maitland",
      "state": "NSW",
      "postCode": "2323"
    }
  },
  {
    "id": "GRENSB",
    "loyaltyCode": 30,
    "slug": "greensborough",
    "name": "Greensborough",
    "thumbnailImage": "cinemas/greensborough.jpg",
    "features": [
      "D-BOX",
      "Daybeds",
      "Recliners",
      "3D"
    ],
    "state": "VIC",
    "street": "25 Main St",
    "suburb": "Greensborough",
    "phone": "(03) 9026 9950",
    "latitude": -37.703208,
    "longitude": 145.10344,
    "link": "/cinemas/greensborough",
    "treatCity": false,
    "benAndJerry": true,
    "deliveryToDoor": false,
    "deliveryToSeat": false,
    "address": {
      "street": "25 Main St",
      "suburb": "Greensborough",
      "state": "VIC",
      "postCode": "3088"
    }
  },
  {
    "id": "HIGPNT",
    "loyaltyCode": 31,
    "slug": "highpoint",
    "name": "Highpoint",
    "thumbnailImage": "cinemas/highpoint.jpg",
    "features": [
      "LUX",
      "D-BOX",
      "Xtremescreen",
      "ONYX",
      "Daybeds",
      "Recliners",
      "Atmos",
      "3D"
    ],
    "state": "VIC",
    "street": "Rosamond Rd",
    "suburb": "Maribyrnong",
    "phone": "(03) 9026 9960",
    "latitude": -37.773041,
    "longitude": 144.888778,
    "link": "/cinemas/highpoint",
    "treatCity": true,
    "benAndJerry": true,
    "deliveryToDoor": false,
    "deliveryToSeat": false,
    "address": {
      "street": "Rosamond Rd",
      "suburb": "Maribyrnong",
      "state": "VIC",
      "postCode": "3032"
    }
  },
  {
    "id": "IPSCIN",
    "loyaltyCode": 89,
    "slug": "ipswich",
    "name": "Ipswich",
    "thumbnailImage": "cinemas/ipswich-website-treatcity-cards-updated.png",
    "features": [
      "D-BOX",
      "Daybeds",
      "Standard with Lean-Back",
      "Recliners",
      "3D"
    ],
    "state": "QLD",
    "street": "Nicholas Street Precinct, Level 1, Nicholas Street",
    "suburb": "Ipswich",
    "phone": "(07) 3339 9771",
    "latitude": -27.61239,
    "longitude": 152.75913,
    "link": "/cinemas/ipswich",
    "treatCity": true,
    "benAndJerry": false,
    "deliveryToDoor": false,
    "deliveryToSeat": false,
    "address": {
      "street": "Nicholas Street Precinct, Level 1, Nicholas Street",
      "suburb": "Ipswich",
      "state": "QLD",
      "postCode": "4305"
    }
  },
  {
    "id": "JOOCIN",
    "loyaltyCode": 87,
    "slug": "joondalup",
    "name": "Joondalup",
    "thumbnailImage": "cinemas/joondalup-candy-bar--thumbnail-image-template.png",
    "features": [
      "Xtremescreen"
    ],
    "state": "WA",
    "street": "420 Joondalup Dr",
    "suburb": "Joondalup",
    "phone": "(08) 6509 4030",
    "latitude": -31.7429,
    "longitude": 115.7674,
    "link": "/cinemas/joondalup",
    "treatCity": false,
    "benAndJerry": false,
    "deliveryToDoor": false,
    "deliveryToSeat": false,
    "address": {
      "street": "420 Joondalup Dr",
      "suburb": "Joondalup",
      "state": "WA",
      "postCode": "6027"
    }
  },
  {
    "id": "KYPCIN",
    "loyaltyCode": 82,
    "slug": "karrinyup",
    "name": "Karrinyup",
    "thumbnailImage": "cinemas/karrinyup.jpg",
    "features": [
      "LUX",
      "D-BOX",
      "Xtremescreen",
      "Daybeds",
      "Recliners",
      "Atmos",
      "3D"
    ],
    "state": "WA",
    "street": "200 Karrinyup Road",
    "suburb": "Karrinyup",
    "phone": "(08) 9466 4930",
    "latitude": -31.876379,
    "longitude": 115.778394,
    "link": "/cinemas/karrinyup",
    "treatCity": true,
    "benAndJerry": true,
    "deliveryToDoor": false,
    "deliveryToSeat": false,
    "address": {
      "street": "200 Karrinyup Road",
      "suburb": "Karrinyup",
      "state": "WA",
      "postCode": "6018"
    }
  },
  {
    "id": "MCECIN",
    "loyaltyCode": 49,
    "slug": "melbourne-central",
    "name": "Melbourne Central",
    "thumbnailImage": "cinemas/hoyts-ipswich-43-cinema-3.jpg",
    "features": [
      "LUX",
      "D-BOX",
      "SCREENX",
      "Xtremescreen",
      "Daybeds",
      "Standard with Lean-Back",
      "Recliners",
      "Atmos",
      "3D"
    ],
    "state": "VIC",
    "street": "Cnr Swanston & Latrobe Street",
    "suburb": "Melbourne",
    "phone": "(03) 9026 9970",
    "latitude": -37.8102208798984,
    "longitude": 144.962768811926,
    "link": "/cinemas/melbourne-central",
    "treatCity": false,
    "benAndJerry": true,
    "deliveryToDoor": false,
    "deliveryToSeat": false,
    "address": {
      "street": "Cnr Swanston & Latrobe Street",
      "suburb": "Melbourne",
      "state": "VIC",
      "postCode": "3000"
    }
  },
  {
    "id": "MILENM",
    "loyaltyCode": 37,
    "slug": "millennium",
    "name": "Millennium",
    "thumbnailImage": "cinemas/millennium.jpg",
    "features": [
      "Xtremescreen",
      "Recliners",
      "3D"
    ],
    "state": "WA",
    "street": "Collie St",
    "suburb": "Fremantle",
    "phone": "(08) 9466 4920",
    "latitude": -32.056559,
    "longitude": 115.746196,
    "link": "/cinemas/millennium",
    "treatCity": false,
    "benAndJerry": false,
    "deliveryToDoor": false,
    "deliveryToSeat": false,
    "address": {
      "street": "Collie St",
      "suburb": "Fremantle",
      "state": "WA",
      "postCode": "6160"
    }
  },
  {
    "id": "MTDRTT",
    "loyaltyCode": 21,
    "slug": "mt-druitt",
    "name": "Mt Druitt",
    "thumbnailImage": "cinemas/mt-druitt.jpg",
    "features": [
      "D-BOX",
      "Xtremescreen",
      "Daybeds",
      "Recliners",
      "3D"
    ],
    "state": "NSW",
    "street": "Westfield Mt. Druitt, 49 Carlisle Avenue",
    "suburb": "Mount Druitt",
    "phone": "(02) 9003 3880",
    "latitude": -33.766858,
    "longitude": 150.816929,
    "link": "/cinemas/mt-druitt",
    "treatCity": false,
    "benAndJerry": false,
    "deliveryToDoor": false,
    "deliveryToSeat": false,
    "address": {
      "street": "Westfield Mt. Druitt, 49 Carlisle Avenue",
      "suburb": "Mount Druitt",
      "state": "NSW",
      "postCode": "2770"
    }
  },
  {
    "id": "NORTHL",
    "loyaltyCode": 41,
    "slug": "northland",
    "name": "Northland",
    "thumbnailImage": "cinemas/northland.jpg",
    "features": [
      "D-BOX",
      "Xtremescreen",
      "Recliners",
      "3D"
    ],
    "state": "VIC",
    "street": "50 Murray Rd",
    "suburb": "Preston",
    "phone": "(03) 9026 9980",
    "latitude": -37.740618,
    "longitude": 145.029984,
    "link": "/cinemas/northland",
    "treatCity": false,
    "benAndJerry": false,
    "deliveryToDoor": false,
    "deliveryToSeat": false,
    "address": {
      "street": "50 Murray Rd",
      "suburb": "Preston",
      "state": "VIC",
      "postCode": "3072"
    }
  },
  {
    "id": "NWDCIN",
    "loyaltyCode": 33,
    "slug": "norwood",
    "name": "Norwood",
    "thumbnailImage": "cinemas/norwood.jpg",
    "features": [
      "D-BOX",
      "Xtremescreen",
      "Daybeds",
      "Recliners",
      "3D"
    ],
    "state": "SA",
    "street": "185 The Parade",
    "suburb": "Norwood",
    "phone": "(08) 8427 1700",
    "latitude": -34.920311,
    "longitude": 138.637105,
    "link": "/cinemas/norwood",
    "treatCity": false,
    "benAndJerry": true,
    "deliveryToDoor": false,
    "deliveryToSeat": false,
    "address": {
      "street": "185 The Parade",
      "suburb": "Norwood",
      "state": "SA",
      "postCode": "5067"
    }
  },
  {
    "id": "PENRTH",
    "loyaltyCode": 22,
    "slug": "penrith",
    "name": "Penrith",
    "thumbnailImage": "cinemas/pen-web.jpg",
    "features": [
      "Xtremescreen",
      "3D"
    ],
    "state": "NSW",
    "street": "Cnr Jane and Riley St",
    "suburb": "Penrith",
    "phone": "(02) 4749 5600",
    "latitude": -33.752039,
    "longitude": 150.693972,
    "link": "/cinemas/penrith",
    "treatCity": false,
    "benAndJerry": true,
    "deliveryToDoor": false,
    "deliveryToSeat": false,
    "address": {
      "street": "Cnr Jane and Riley St",
      "suburb": "Penrith",
      "state": "NSW",
      "postCode": "2750"
    }
  },
  {
    "id": "REDCLF",
    "loyaltyCode": 69,
    "slug": "redcliffe",
    "name": "Redcliffe",
    "thumbnailImage": "cinemas/20230525-090058.jpg",
    "features": [
      "Xtremescreen",
      "Recliners",
      "3D"
    ],
    "state": "QLD",
    "street": "272 Anzac Ave",
    "suburb": "Kippa-Ring",
    "phone": "(07) 3339 9700",
    "latitude": -27.225154,
    "longitude": 153.088067,
    "link": "/cinemas/redcliffe",
    "treatCity": false,
    "benAndJerry": false,
    "deliveryToDoor": false,
    "deliveryToSeat": false,
    "address": {
      "street": "272 Anzac Ave",
      "suburb": "Kippa-Ring",
      "state": "QLD",
      "postCode": "4020"
    }
  },
  {
    "id": "SLYCIN",
    "loyaltyCode": 45,
    "slug": "salisbury",
    "name": "Salisbury",
    "thumbnailImage": "cinemas/salisbury.jpg",
    "features": [
      "Xtremescreen",
      "Recliners",
      "3D"
    ],
    "state": "SA",
    "street": "Cnr James & Gawler St",
    "suburb": "Salisbury",
    "phone": "(08) 8427 1710",
    "latitude": -34.761435,
    "longitude": 138.643597,
    "link": "/cinemas/salisbury",
    "treatCity": false,
    "benAndJerry": false,
    "deliveryToDoor": false,
    "deliveryToSeat": false,
    "address": {
      "street": "Cnr James & Gawler St",
      "suburb": "Salisbury",
      "state": "SA",
      "postCode": "5108"
    }
  },
  {
    "id": "SOUTHL",
    "loyaltyCode": 39,
    "slug": "southlands",
    "name": "Southlands",
    "thumbnailImage": "cinemas/southlands.jpg",
    "features": [
      "Daybeds",
      "Recliners",
      "3D"
    ],
    "state": "WA",
    "street": "Burrendah Boulevard",
    "suburb": "Willetton",
    "phone": "(08) 9466 4940",
    "latitude": -32.0575,
    "longitude": 115.8803,
    "link": "/cinemas/southlands",
    "treatCity": false,
    "benAndJerry": false,
    "deliveryToDoor": false,
    "deliveryToSeat": false,
    "address": {
      "street": "Burrendah Boulevard",
      "suburb": "Willetton",
      "state": "WA",
      "postCode": "6155"
    }
  },
  {
    "id": "STAFRD",
    "loyaltyCode": 70,
    "slug": "stafford",
    "name": "Stafford",
    "thumbnailImage": "cinemas/stafford.jpg",
    "features": [
      "D-BOX",
      "Xtremescreen",
      "Daybeds",
      "Recliners",
      "3D"
    ],
    "state": "QLD",
    "street": "400 Stafford Rd",
    "suburb": "Stafford",
    "phone": "(07) 3339 9710",
    "latitude": -27.410329,
    "longitude": 153.012772,
    "link": "/cinemas/stafford",
    "treatCity": true,
    "benAndJerry": false,
    "deliveryToDoor": false,
    "deliveryToSeat": false,
    "address": {
      "street": "400 Stafford Rd",
      "suburb": "Stafford",
      "state": "QLD",
      "postCode": "4053"
    }
  },
  {
    "id": "SUNBNK",
    "loyaltyCode": 67,
    "slug": "sunnybank",
    "name": "Sunnybank",
    "thumbnailImage": "cinemas/sunnybank-1.jpg",
    "features": [
      "D-BOX",
      "Xtremescreen",
      "Daybeds",
      "Recliners",
      "3D"
    ],
    "state": "QLD",
    "street": "Cnr Main St and McCullough St",
    "suburb": "Sunnybank",
    "phone": "(07) 3339 9720",
    "latitude": -27.569156,
    "longitude": 153.062596,
    "link": "/cinemas/sunnybank",
    "treatCity": false,
    "benAndJerry": true,
    "deliveryToDoor": false,
    "deliveryToSeat": false,
    "address": {
      "street": "Cnr Main St and McCullough St",
      "suburb": "Sunnybank",
      "state": "QLD",
      "postCode": "4109"
    }
  },
  {
    "id": "TTPLZA",
    "loyaltyCode": 34,
    "slug": "tea-tree-plaza",
    "name": "Tea Tree Plaza",
    "thumbnailImage": "cinemas/microsoftteams-image-16.png",
    "features": [
      "LUX",
      "D-BOX",
      "Xtremescreen",
      "Daybeds",
      "Recliners",
      "3D"
    ],
    "state": "SA",
    "street": "976 North East Rd",
    "suburb": "Modbury",
    "phone": "(08) 8427 1720",
    "latitude": -34.831491,
    "longitude": 138.691223,
    "link": "/cinemas/tea-tree-plaza",
    "treatCity": true,
    "benAndJerry": false,
    "deliveryToDoor": false,
    "deliveryToSeat": false,
    "address": {
      "street": "976 North East Rd",
      "suburb": "Modbury",
      "state": "SA",
      "postCode": "5092"
    }
  },
  {
    "id": "DOCCIN",
    "loyaltyCode": 77,
    "slug": "district-docklands",
    "name": "The District Docklands",
    "thumbnailImage": "cinemas/district-docklands.jpg",
    "features": [
      "D-BOX",
      "Xtremescreen",
      "Recliners",
      "Atmos",
      "3D"
    ],
    "state": "VIC",
    "street": "440 Docklands Drive",
    "suburb": "Docklands",
    "phone": "(03) 9027 1540",
    "latitude": -37.8119,
    "longitude": 144.937006,
    "link": "/cinemas/district-docklands",
    "treatCity": true,
    "benAndJerry": true,
    "deliveryToDoor": false,
    "deliveryToSeat": false,
    "address": {
      "street": "440 Docklands Drive",
      "suburb": "Docklands",
      "state": "VIC",
      "postCode": "3008"
    }
  },
  {
    "id": "TWDCTY",
    "loyaltyCode": 66,
    "slug": "tweed-city",
    "name": "Tweed City",
    "thumbnailImage": "cinemas/tweed-city.jpg",
    "features": [
      "D-BOX",
      "Xtremescreen",
      "Recliners",
      "3D"
    ],
    "state": "NSW",
    "street": "54 Minjungbal Dr",
    "suburb": "Tweed Heads",
    "phone": "(07) 5669 9600",
    "latitude": -28.201827,
    "longitude": 153.545928,
    "link": "/cinemas/tweed-city",
    "treatCity": false,
    "benAndJerry": false,
    "deliveryToDoor": false,
    "deliveryToSeat": false,
    "address": {
      "street": "54 Minjungbal Dr",
      "suburb": "Tweed Heads",
      "state": "NSW",
      "postCode": "2486"
    }
  },
  {
    "id": "VGDCIN",
    "loyaltyCode": 46,
    "slug": "victoria-gardens",
    "name": "Victoria Gardens",
    "thumbnailImage": "cinemas/victoria-gardens.jpg",
    "features": [
      "LUX",
      "Xtremescreen",
      "Recliners",
      "3D"
    ],
    "state": "VIC",
    "street": "Corner Burnley and Victoria Streets",
    "suburb": "Richmond",
    "phone": "(03) 9027 1500",
    "latitude": -37.81383,
    "longitude": 145.011577,
    "link": "/cinemas/victoria-gardens",
    "treatCity": false,
    "benAndJerry": false,
    "deliveryToDoor": false,
    "deliveryToSeat": false,
    "address": {
      "street": "Corner Burnley and Victoria Streets",
      "suburb": "Richmond",
      "state": "VIC",
      "postCode": "3121"
    }
  },
  {
    "id": "WWGCIN",
    "loyaltyCode": 26,
    "slug": "warrawong",
    "name": "Warrawong",
    "thumbnailImage": "cinemas/warrawong.jpg",
    "features": [
      "D-BOX",
      "Recliners",
      "3D"
    ],
    "state": "NSW",
    "street": "Cnr King & Cowper St",
    "suburb": "Warrawong",
    "phone": "(02) 4298 7900",
    "latitude": -34.486685,
    "longitude": 150.888986,
    "link": "/cinemas/warrawong",
    "treatCity": false,
    "benAndJerry": false,
    "deliveryToDoor": false,
    "deliveryToSeat": false,
    "address": {
      "street": "Cnr King & Cowper St",
      "suburb": "Warrawong",
      "state": "NSW",
      "postCode": "2502"
    }
  },
  {
    "id": "WGHMAL",
    "loyaltyCode": 25,
    "slug": "warringah-mall",
    "name": "Warringah Mall",
    "thumbnailImage": "cinemas/wgh---foyer.jpg",
    "features": [
      "3D"
    ],
    "state": "NSW",
    "street": "Corner of Condamine St. and Old Pittwater Rd.",
    "suburb": "Brookvale",
    "phone": "(02) 9003 3900",
    "latitude": -33.770499,
    "longitude": 151.265891,
    "link": "/cinemas/warringah-mall",
    "treatCity": false,
    "benAndJerry": false,
    "deliveryToDoor": false,
    "deliveryToSeat": false,
    "address": {
      "street": "Corner of Condamine St. and Old Pittwater Rd.",
      "suburb": "Brookvale",
      "state": "NSW",
      "postCode": "2100"
    }
  },
  {
    "id": "WARCIN",
    "loyaltyCode": 86,
    "slug": "warwick",
    "name": "Warwick",
    "thumbnailImage": "cinemas/request-5101-warwick-cinemax-recliner.png",
    "features": [
      "LUX",
      "Xtremescreen",
      "Recliners"
    ],
    "state": "WA",
    "street": "639 Beach Rd",
    "suburb": "Warwick",
    "phone": "(08) 6509 4020",
    "latitude": -31.8448695,
    "longitude": 115.8089617,
    "link": "/cinemas/warwick",
    "treatCity": false,
    "benAndJerry": false,
    "deliveryToDoor": false,
    "deliveryToSeat": false,
    "address": {
      "street": "639 Beach Rd",
      "suburb": "Warwick",
      "state": "WA",
      "postCode": "6024"
    }
  },
  {
    "id": "TAYLOR",
    "loyaltyCode": 32,
    "slug": "watergardens",
    "name": "Watergardens",
    "thumbnailImage": "cinemas/watergardens.jpg",
    "features": [
      "D-BOX",
      "Xtremescreen",
      "Recliners",
      "3D"
    ],
    "state": "VIC",
    "street": "399 Melton Hwy",
    "suburb": "Taylors Lakes",
    "phone": "(03) 9027 1510",
    "latitude": -37.696757,
    "longitude": 144.775878,
    "link": "/cinemas/watergardens",
    "treatCity": false,
    "benAndJerry": false,
    "deliveryToDoor": false,
    "deliveryToSeat": false,
    "address": {
      "street": "399 Melton Hwy",
      "suburb": "Taylors Lakes",
      "state": "VIC",
      "postCode": "3038"
    }
  },
  {
    "id": "WETHER",
    "loyaltyCode": 24,
    "slug": "wetherill-park",
    "name": "Wetherill Park",
    "thumbnailImage": "cinemas/wetherill-park.jpg",
    "features": [
      "LUX",
      "D-BOX",
      "Xtremescreen",
      "Daybeds",
      "Recliners",
      "3D"
    ],
    "state": "NSW",
    "street": "Polding St",
    "suburb": "Wetherill Park",
    "phone": "(02) 9003 3910",
    "latitude": -33.857551,
    "longitude": 150.898418,
    "link": "/cinemas/wetherill-park",
    "treatCity": false,
    "benAndJerry": false,
    "deliveryToDoor": false,
    "deliveryToSeat": false,
    "address": {
      "street": "Polding St",
      "suburb": "Wetherill Park",
      "state": "NSW",
      "postCode": "2164"
    }
  },
  {
    "id": "WODENP",
    "loyaltyCode": 4,
    "slug": "woden",
    "name": "Woden",
    "thumbnailImage": "cinemas/warrawong.jpg",
    "features": [
      "D-BOX",
      "Xtremescreen",
      "Recliners",
      "3D"
    ],
    "state": "ACT",
    "street": "Bradley Street",
    "suburb": "Phillip",
    "phone": "(02) 6223 5310",
    "latitude": -35.346206,
    "longitude": 149.086606,
    "link": "/cinemas/woden",
    "treatCity": false,
    "benAndJerry": true,
    "deliveryToDoor": false,
    "deliveryToSeat": false,
    "address": {
      "street": "Bradley Street",
      "suburb": "Phillip",
      "state": "ACT",
      "postCode": "2606"
    }
  }
]
